{
    "type": "FeatureCollection",
    "features": [
        {
            "type": "Feature",
            "properties": {
                "name": "东门",
                "category": "door"
            },
            "geometry": {
                "type": "Point",
                "coordinates": [116.315817, 39.992129]
            }
        },
        {
            "type": "Feature",
            "properties": {
                "name": "东侧门",
                "category": "door"
            },
            "geometry": {
                "type": "Point",
                "coordinates": [116.315561,39.993037]
            }
        },
        {
            "type": "Feature",
            "properties": {
                "name": "东南门",
                "category": "door"
            },
            "geometry": {
                "type": "Point",
                "coordinates": [116.315864,39.990096]
            }
        },
        {
            "type": "Feature",
            "properties": {
                "name": "南门",
                "category": "door"
            },
            "geometry": {
                "type": "Point",
                "coordinates": [116.311537, 39.986601]
            }
        },
        {
            "type": "Feature",
            "properties": {
                "name": "西南门",
                "category": "door"
            },
            "geometry": {
                "type": "Point",
                "coordinates": [116.305464,39.987576]
            }
        },
        {
            "type": "Feature",
            "properties": {
                "name": "西门",
                "category": "door"
            },
            "geometry": {
                "type": "Point",
                "coordinates": [116.304572, 39.994556]
            }
        },
        {
            "type": "Feature",
            "properties": {
                "name": "卫生间",
                "category": "toilet"
            },
            "geometry": {
                "type": "Point",
                "coordinates": [116.306117,39.996141]
            }
        },
        {
            "type": "Feature",
            "properties": {
                "name": "卫生间",
                "category": "toilet"
            },
            "geometry": {
                "type": "Point",
                "coordinates": [116.309612,39.988668]
            }
        },
        {
            "type": "Feature",
            "properties": {
                "name": "卫生间",
                "category": "toilet"
            },
            "geometry": {
                "type": "Point",
                "coordinates": [116.309006,39.990059]
            }
        },
        {
            "type": "Feature",
            "properties": {
                "name": "卫生间",
                "category": "toilet"
            },
            "geometry": {
                "type": "Point",
                "coordinates": [116.306231,39.989419]
            }
        },
        {
            "type": "Feature",
            "properties": {
                "name": "卫生间",
                "category": "toilet"
            },
            "geometry": {
                "type": "Point",
                "coordinates": [116.31417,39.989396]
            }
        },
        {
            "type": "Feature",
            "properties": {
                "name": "未名湖",
                "category": "nature"
            },
            "geometry": {
                "type": "Point",
                "coordinates": [116.310501, 39.994628]
            }
        },
        {
            "type": "Feature",
            "properties": {
                "name": "办公楼",
                "category": "history"
            },
            "geometry": {
                "type": "Point",
                "coordinates": [116.306451, 39.994587]
            }
        },
        {
            "type": "Feature",
            "properties": {
                "name": "博雅塔",
                "category": "culture"
            },
            "geometry": {
                "type": "Point",
                "coordinates": [116.311843, 39.993964]
            }
        },
        {
            "type": "Feature",
            "properties": {
                "name": "蔡元培铜像",
                "category": "culture"
            },
            "geometry": {
                "type": "Point",
                "coordinates": [116.307364, 39.994333]
            }
        },
        {
            "type": "Feature",
            "properties": {
                "name": "慈济寺山门",
                "category": "history"
            },
            "geometry": {
                "type": "Point",
                "coordinates": [116.310389, 39.994075]
            }
        },
        {
            "type": "Feature",
            "properties": {
                "name": "丹陛石",
                "category": "history"
            },
            "geometry": {
                "type": "Point",
                "coordinates": [116.306008, 39.994628]
            }
        },
        {
            "type": "Feature",
            "properties": {
                "name": "档案馆",
                "category": "history"
            },
            "geometry": {
                "type": "Point",
                "coordinates": [116.306478, 39.993874]
            }
        },
        {
            "type": "Feature",
            "properties": {
                "name": "德才均备斋",
                "category": "culture"
            },
            "geometry": {
                "type": "Point",
                "coordinates": [116.308648, 39.995454]
            }
        },
        {
            "type": "Feature",
            "properties": {
                "name": "第二体育馆",
                "category": "culture"
            },
            "geometry": {
                "type": "Point",
                "coordinates": [116.308099, 39.990734]
            }
        },
        {
            "type": "Feature",
            "properties": {
                "name": "第一体育馆",
                "category": "culture"
            },
            "geometry": {
                "type": "Point",
                "coordinates": [116.31153, 39.995298]
            }
        },
        {
            "type": "Feature",
            "properties": {
                "name": "断桥残雪石牌坊构件",
                "category": "history"
            },
            "geometry": {
                "type": "Point",
                "coordinates": [116.309703, 39.99731]
            }
        },
        {
            "type": "Feature",
            "properties": {
                "name": "俄文楼",
                "category": "history"
            },
            "geometry": {
                "type": "Point",
                "coordinates": [116.308706, 39.99285]
            }
        },
        {
            "type": "Feature",
            "properties": {
                "name": "翻尾石鱼",
                "category": "culture"
            },
            "geometry": {
                "type": "Point",
                "coordinates": [116.308318, 39.994316]
            }
        },
        {
            "type": "Feature",
            "properties": {
                "name": "方池",
                "category": "nature"
            },
            "geometry": {
                "type": "Point",
                "coordinates": [116.306328, 39.996284]
            }
        },
        {
            "type": "Feature",
            "properties": {
                "name": "革命烈士纪念碑",
                "category": "history"
            },
            "geometry": {
                "type": "Point",
                "coordinates": [116.30819, 39.992155]
            }
        },
        {
            "type": "Feature",
            "properties": {
                "name": "葛利普墓",
                "category": "history"
            },
            "geometry": {
                "type": "Point",
                "coordinates": [116.305331, 39.993749]
            }
        },
        {
            "type": "Feature",
            "properties": {
                "name": "国立西南联合大学纪念碑",
                "category": "history"
            },
            "geometry": {
                "type": "Point",
                "coordinates": [116.305269, 39.993722]
            }
        },
        {
            "type": "Feature",
            "properties": {
                "name": "海晏堂引水槽",
                "category": "history"
            },
            "geometry": {
                "type": "Point",
                "coordinates": [116.304767, 39.993987]
            }
        },
        {
            "type": "Feature",
            "properties": {
                "name": "杭爱碑",
                "category": "history"
            },
            "geometry": {
                "type": "Point",
                "coordinates": [116.308166,39.992393]
            }
        },
        {
            "type": "Feature",
            "properties": {
                "name": "花神庙碑",
                "category": "history"
            },
            "geometry": {
                "type": "Point",
                "coordinates": [116.30998, 39.994086]
            }
        },
        {
            "type": "Feature",
            "properties": {
                "name": "华表",
                "category": "culture"
            },
            "geometry": {
                "type": "Point",
                "coordinates": [116.305475, 39.994521]
            }
        },
        {
            "type": "Feature",
            "properties": {
                "name": "静园",
                "category": "history"
            },
            "geometry": {
                "type": "Point",
                "coordinates": [116.308047, 39.991695]
            }
        },
        {
            "type": "Feature",
            "properties": {
                "name": "镜春园",
                "category": "nature"
            },
            "geometry": {
                "type": "Point",
                "coordinates": [116.309296, 39.996504]
            }
        },
        {
            "type": "Feature",
            "properties": {
                "name": "赖朴吾、夏仁德墓",
                "category": "history"
            },
            "geometry": {
                "type": "Point",
                "coordinates": [116.3092, 39.993777]
            }
        },
        {
            "type": "Feature",
            "properties": {
                "name": "朗润园",
                "category": "nature"
            },
            "geometry": {
                "type": "Point",
                "coordinates": [116.30988, 39.99803]
            }
        },
        {
            "type": "Feature",
            "properties": {
                "name": "李大钊像",
                "category": "history"
            },
            "geometry": {
                "type": "Point",
                "coordinates": [116.308169, 39.992897]
            }
        },
        {
            "type": "Feature",
            "properties": {
                "name": "临湖轩",
                "category": "nature"
            },
            "geometry": {
                "type": "Point",
                "coordinates": [116.309, 39.993596]
            }
        },
        {
            "type": "Feature",
            "properties": {
                "name": "鲁斯亭",
                "category": "culture"
            },
            "geometry": {
                "type": "Point",
                "coordinates": [116.309901, 39.994751]
            }
        },
        {
            "type": "Feature",
            "properties": {
                "name": "梅石碑",
                "category": "history"
            },
            "geometry": {
                "type": "Point",
                "coordinates": [116.308403, 39.993373]
            }
        },
        {
            "type": "Feature",
            "properties": {
                "name": "民主楼",
                "category": "history"
            },
            "geometry": {
                "type": "Point",
                "coordinates": [116.30642, 39.995309]
            }
        },
        {
            "type": "Feature",
            "properties": {
                "name": "鸣鹤园",
                "category": "nature"
            },
            "geometry": {
                "type": "Point",
                "coordinates": [116.305315, 39.9953]
            }
        },
        {
            "type": "Feature",
            "properties": {
                "name": "南北阁",
                "category": "history"
            },
            "geometry": {
                "type": "Point",
                "coordinates": [116.307501, 39.992893]
            }
        },
        {
            "type": "Feature",
            "properties": {
                "name": "旗杆座（1934）",
                "category": "history"
            },
            "geometry": {
                "type": "Point",
                "coordinates": [116.310344, 39.994057]
            }
        },
        {
            "type": "Feature",
            "properties": {
                "name": "旗杆座（1952）",
                "category": "history"
            },
            "geometry": {
                "type": "Point",
                "coordinates": [116.305359, 39.993995]
            }
        },
        {
            "type": "Feature",
            "properties": {
                "name": "乾隆御制诗碑",
                "category": "history"
            },
            "geometry": {
                "type": "Point",
                "coordinates": [116.30799, 39.994296]
            }
        },
        {
            "type": "Feature",
            "properties": {
                "name": "日晷",
                "category": "culture"
            },
            "geometry": {
                "type": "Point",
                "coordinates": [116.30591, 39.995295]
            }
        },
        {
            "type": "Feature",
            "properties": {
                "name": "塞万提斯像",
                "category": "culture"
            },
            "geometry": {
                "type": "Point",
                "coordinates": [116.305994, 39.992799]
            }
        },
        {
            "type": "Feature",
            "properties": {
                "name": "三一八遇难烈士纪念碑",
                "category": "history"
            },
            "geometry": {
                "type": "Point",
                "coordinates": [116.306489, 39.993373]
            }
        },
        {
            "type": "Feature",
            "properties": {
                "name": "石雕五供及石供桌",
                "category": "history"
            },
            "geometry": {
                "type": "Point",
                "coordinates": [116.308907, 39.993841]
            }
        },
        {
            "type": "Feature",
            "properties": {
                "name": "石舫",
                "category": "culture"
            },
            "geometry": {
                "type": "Point",
                "coordinates": [116.309901, 39.994751]
            }
        },
        {
            "type": "Feature",
            "properties": {
                "name": "石盆",
                "category": "nature"
            },
            "geometry": {
                "type": "Point",
                "coordinates": [116.309012, 39.99353]
            }
        },
        {
            "type": "Feature",
            "properties": {
                "name": "石屏风",
                "category": "history"
            },
            "geometry": {
                "type": "Point",
                "coordinates": [116.309999, 39.995805]
            }
        },
        {
            "type": "Feature",
            "properties": {
                "name": "石麒麟",
                "category": "culture"
            },
            "geometry": {
                "type": "Point",
                "coordinates": [116.306305, 39.994615]
            }
        },
        {
            "type": "Feature",
            "properties": {
                "name": "守仁国际中心建筑群",
                "category": "history"
            },
            "geometry": {
                "type": "Point",
                "coordinates": [116.310777, 39.993554999]
            }
        },
        {
            "type": "Feature",
            "properties": {
                "name": "斯诺墓",
                "category": "history"
            },
            "geometry": {
                "type": "Point",
                "coordinates": [116.31041, 39.993893]
            }
        },
        {
            "type": "Feature",
            "properties": {
                "name": "体斋 健斋 全斋",
                "category": "history"
            },
            "geometry": {
                "type": "Point",
                "coordinates": [116.309474, 39.995811]
            }
        },
        {
            "type": "Feature",
            "properties": {
                "name": "外文楼",
                "category": "history"
            },
            "geometry": {
                "type": "Point",
                "coordinates": [116.305906, 39.99504]
            }
        },
        {
            "type": "Feature",
            "properties": {
                "name": "西式平桥",
                "category": "culture"
            },
            "geometry": {
                "type": "Point",
                "coordinates": [116.309151, 39.995045]
            }
        },
        {
            "type": "Feature",
            "properties": {
                "name": "校景亭",
                "category": "nature"
            },
            "geometry": {
                "type": "Point",
                "coordinates": [116.306558, 39.996225]
            }
        },
        {
            "type": "Feature",
            "properties": {
                "name": "校友桥",
                "category": "culture"
            },
            "geometry": {
                "type": "Point",
                "coordinates": [116.305062, 39.994592]
            }
        },
        {
            "type": "Feature",
            "properties": {
                "name": "燕南园",
                "category": "nature"
            },
            "geometry": {
                "type": "Point",
                "coordinates": [116.308725, 39.989572]
            }
        },
        {
            "type": "Feature",
            "properties": {
                "name": "振兴中华碑",
                "category": "history"
            },
            "geometry": {
                "type": "Point",
                "coordinates": [116.310448, 39.992544]
            }
        },
        {
            "type": "Feature",
            "properties": {
                "name": "治贝子园",
                "category": "nature"
            },
            "geometry": {
                "type": "Point",
                "coordinates": [116.314541, 39.98905]
            }
        },
        {
            "type": "Feature",
            "properties": {
                "name": "钟亭",
                "category": "culture"
            },
            "geometry": {
                "type": "Point",
                "coordinates": [116.307987, 39.994391]
            }
        }
    ]
}
